{"type":"FeatureCollection","totalFeatures":51,"features":[{"type":"Feature","id":"bikeshare.1","geometry":{"type":"Point","coordinates":[144.939521,-37.814022]},"geometry_name":"geom","properties":{"id":"2","name":"Docklands Drive - Docklands","latitude":-37.814022,"longitude":144.939521,"nbbikes":12,"nbemptydoc":10,"maplabel":"Docklands Drive - Docklands","dateserver":"2014-04-28Z","coordinates":"\"(-37.8140220000483","stuff":" 144.939521000022)\""}},{"type":"Feature","id":"bikeshare.2","geometry":{"type":"Point","coordinates":[144.967814,-37.817523]},"geometry_name":"geom","properties":{"id":"4","name":"Federation Square","latitude":-37.817523,"longitude":144.967814,"nbbikes":16,"nbemptydoc":11,"maplabel":"Federation Square","dateserver":"2014-04-28Z","coordinates":"\"(-37.8175230000519","stuff":" 144.967814000059)\""}},{"type":"Feature","id":"bikeshare.3","geometry":{"type":"Point","coordinates":[144.948196,-37.84782]},"geometry_name":"geom","properties":{"id":"5","name":"Plum Garland","latitude":-37.84782,"longitude":144.948196,"nbbikes":3,"nbemptydoc":15,"maplabel":"Plum Garland","dateserver":"2014-04-28Z","coordinates":"\"(-37.8478199999681","stuff":" 144.948195999981)\""}},{"type":"Feature","id":"bikeshare.4","geometry":{"type":"Point","coordinates":[144.964417,-37.810702]},"geometry_name":"geom","properties":{"id":"6","name":"Swanston St / Little Lonsdale St","latitude":-37.810702,"longitude":144.964417,"nbbikes":9,"nbemptydoc":2,"maplabel":"Swanston St / Little Lonsdale St","dateserver":"2014-04-28Z","coordinates":"\"(-37.8107020000435","stuff":" 144.964416999922)\""}},{"type":"Feature","id":"bikeshare.5","geometry":{"type":"Point","coordinates":[144.967437,-37.813088]},"geometry_name":"geom","properties":{"id":"7","name":"205 Bourke St  near Russell St","latitude":-37.813088,"longitude":144.967437,"nbbikes":10,"nbemptydoc":1,"maplabel":"205 Bourke St  near Russell St","dateserver":"2014-04-28Z","coordinates":"\"(-37.8130880000171","stuff":" 144.967436999968)\""}},{"type":"Feature","id":"bikeshare.6","geometry":{"type":"Point","coordinates":[144.960858,-37.79625]},"geometry_name":"geom","properties":{"id":"8","name":"Melbourne Uni - Tin Alley","latitude":-37.79625,"longitude":144.960858,"nbbikes":6,"nbemptydoc":16,"maplabel":"Melbourne Uni - Tin Alley","dateserver":"2014-04-28Z","coordinates":"\"(-37.796250000032","stuff":" 144.96085800006)\""}},{"type":"Feature","id":"bikeshare.7","geometry":{"type":"Point","coordinates":[144.963095,-37.807699]},"geometry_name":"geom","properties":{"id":"9","name":"RMIT - Swanston St / Franklin St","latitude":-37.807699,"longitude":144.963095,"nbbikes":8,"nbemptydoc":3,"maplabel":"RMIT - Swanston St / Franklin St","dateserver":"2014-04-28Z","coordinates":"\"(-37.8076989999967","stuff":" 144.96309500006)\""}},{"type":"Feature","id":"bikeshare.8","geometry":{"type":"Point","coordinates":[144.967409,-37.817189]},"geometry_name":"geom","properties":{"id":"10","name":"Swanston St (East) / Flinders St (St Pauls)","latitude":-37.817189,"longitude":144.967409,"nbbikes":9,"nbemptydoc":2,"maplabel":"Swanston St (East) / Flinders St (St Pauls)","dateserver":"2014-04-28Z","coordinates":"\"(-37.817188999953","stuff":" 144.967408999943)\""}},{"type":"Feature","id":"bikeshare.9","geometry":{"type":"Point","coordinates":[144.961868,-37.842395]},"geometry_name":"geom","properties":{"id":"11","name":"MSAC (Melbourne Sports & Aquatic Centre)","latitude":-37.842395,"longitude":144.961868,"nbbikes":24,"nbemptydoc":3,"maplabel":"MSAC (Melbourne Sports & Aquatic Centre)","dateserver":"2014-04-28Z","coordinates":"\"(-37.8423950000195","stuff":" 144.96186800001)\""}},{"type":"Feature","id":"bikeshare.10","geometry":{"type":"Point","coordinates":[144.963106,-37.813848]},"geometry_name":"geom","properties":{"id":"12","name":"Elizabeth St / Bourke St (GPO)","latitude":-37.813848,"longitude":144.963106,"nbbikes":4,"nbemptydoc":3,"maplabel":"Elizabeth St / Bourke St (GPO)","dateserver":"2014-04-28Z","coordinates":"\"(-37.8138479999995","stuff":" 144.963106000018)\""}},{"type":"Feature","id":"bikeshare.11","geometry":{"type":"Point","coordinates":[144.976745,-37.808595]},"geometry_name":"geom","properties":{"id":"14","name":"Victoria Parade / Morrison Pl (Eye and Ear Hospital)","latitude":-37.808595,"longitude":144.976745,"nbbikes":8,"nbemptydoc":11,"maplabel":"Victoria Parade / Morrison Pl (Eye and Ear Hospital)","dateserver":"2014-04-28Z","coordinates":"\"(-37.8085949999803","stuff":" 144.976744999968)\""}},{"type":"Feature","id":"bikeshare.12","geometry":{"type":"Point","coordinates":[144.970822,-37.828887]},"geometry_name":"geom","properties":{"id":"15","name":"Coventry Street / St Kilda Rd","latitude":-37.828887,"longitude":144.970822,"nbbikes":3,"nbemptydoc":8,"maplabel":"Coventry Street / St Kilda Rd","dateserver":"2014-04-28Z","coordinates":"\"(-37.8288870000347","stuff":" 144.970822000022)\""}},{"type":"Feature","id":"bikeshare.13","geometry":{"type":"Point","coordinates":[144.945923,-37.818306]},"geometry_name":"geom","properties":{"id":"16","name":"Docklands @ NAB - Harbour Esplanade / Bourke St","latitude":-37.818306,"longitude":144.945923,"nbbikes":1,"nbemptydoc":31,"maplabel":"Docklands @ NAB - Harbour Esplanade / Bourke St","dateserver":"2014-04-28Z","coordinates":"\"(-37.8183059999686","stuff":" 144.945923000064)\""}},{"type":"Feature","id":"bikeshare.14","geometry":{"type":"Point","coordinates":[144.943051,-37.823805]},"geometry_name":"geom","properties":{"id":"17","name":"Yarra's Point","latitude":-37.823805,"longitude":144.943051,"nbbikes":0,"nbemptydoc":14,"maplabel":"Yarra's Point","dateserver":"2014-04-28Z","coordinates":"\"(-37.8238049999505","stuff":" 144.943051000062)\""}},{"type":"Feature","id":"bikeshare.15","geometry":{"type":"Point","coordinates":[144.96677,-37.802129]},"geometry_name":"geom","properties":{"id":"18","name":"Lygon St / Argyle Square","latitude":-37.802129,"longitude":144.96677,"nbbikes":1,"nbemptydoc":10,"maplabel":"Lygon St / Argyle Square","dateserver":"2014-04-28Z","coordinates":"\"(-37.8021290000354","stuff":" 144.966770000063)\""}},{"type":"Feature","id":"bikeshare.16","geometry":{"type":"Point","coordinates":[144.966327,-37.798616]},"geometry_name":"geom","properties":{"id":"19","name":"Faraday St / Dorrit St","latitude":-37.798616,"longitude":144.966327,"nbbikes":11,"nbemptydoc":0,"maplabel":"Faraday St / Dorrit St","dateserver":"2014-04-28Z","coordinates":"\"(-37.7986160000235","stuff":" 144.966326999925)\""}},{"type":"Feature","id":"bikeshare.17","geometry":{"type":"Point","coordinates":[144.972762,-37.809072]},"geometry_name":"geom","properties":{"id":"20","name":"Parliament Station - Nicholson St / Albert St","latitude":-37.809072,"longitude":144.972762,"nbbikes":3,"nbemptydoc":12,"maplabel":"Parliament Station - Nicholson St / Albert St","dateserver":"2014-04-28Z","coordinates":"\"(-37.8090719999714","stuff":" 144.972761999966)\""}},{"type":"Feature","id":"bikeshare.18","geometry":{"type":"Point","coordinates":[144.955303,-37.840885]},"geometry_name":"geom","properties":{"id":"21","name":"Bridport st/Montague st  Albert Park","latitude":-37.840885,"longitude":144.955303,"nbbikes":13,"nbemptydoc":9,"maplabel":"Bridport st/Montague st  Albert Park","dateserver":"2014-04-28Z","coordinates":"\"(-37.840884999972","stuff":" 144.955302999934)\""}},{"type":"Feature","id":"bikeshare.19","geometry":{"type":"Point","coordinates":[144.94852,-37.835803]},"geometry_name":"geom","properties":{"id":"22","name":"Pickles st / Ingles st","latitude":-37.835803,"longitude":144.94852,"nbbikes":15,"nbemptydoc":8,"maplabel":"Pickles st / Ingles st","dateserver":"2014-04-28Z","coordinates":"\"(-37.8358029999832","stuff":" 144.948519999973)\""}},{"type":"Feature","id":"bikeshare.20","geometry":{"type":"Point","coordinates":[144.946033,-37.824468]},"geometry_name":"geom","properties":{"id":"23","name":"Docklands - Yarra's Edge (near Lorimer St)","latitude":-37.824468,"longitude":144.946033,"nbbikes":9,"nbemptydoc":2,"maplabel":"Docklands - Yarra's Edge (near Lorimer St)","dateserver":"2014-04-28Z","coordinates":"\"(-37.8244680000139","stuff":" 144.94603299997)\""}},{"type":"Feature","id":"bikeshare.21","geometry":{"type":"Point","coordinates":[144.941854,-37.807021]},"geometry_name":"geom","properties":{"id":"24","name":"North Melbourne Station - North Melbourne","latitude":-37.807021,"longitude":144.941854,"nbbikes":10,"nbemptydoc":13,"maplabel":"North Melbourne Station - North Melbourne","dateserver":"2014-04-28Z","coordinates":"\"(-37.8070209999831","stuff":" 144.941854000008)\""}},{"type":"Feature","id":"bikeshare.22","geometry":{"type":"Point","coordinates":[144.962266,-37.820836]},"geometry_name":"geom","properties":{"id":"25","name":"Sandridge Bridge  Southbank","latitude":-37.820836,"longitude":144.962266,"nbbikes":20,"nbemptydoc":7,"maplabel":"Sandridge Bridge  Southbank","dateserver":"2014-04-28Z","coordinates":"\"(-37.8208360000044","stuff":" 144.962265999964)\""}},{"type":"Feature","id":"bikeshare.23","geometry":{"type":"Point","coordinates":[144.935296,-37.841954]},"geometry_name":"geom","properties":{"id":"26","name":"Beach St  Port Melbourne","latitude":-37.841954,"longitude":144.935296,"nbbikes":27,"nbemptydoc":12,"maplabel":"Beach St  Port Melbourne","dateserver":"2014-04-28Z","coordinates":"\"(-37.8419539999758","stuff":" 144.935296000043)\""}},{"type":"Feature","id":"bikeshare.24","geometry":{"type":"Point","coordinates":[144.944081,-37.814117]},"geometry_name":"geom","properties":{"id":"27","name":"Docklands - New Quay / Harbour Esplanade","latitude":-37.814117,"longitude":144.944081,"nbbikes":21,"nbemptydoc":6,"maplabel":"Docklands - New Quay / Harbour Esplanade","dateserver":"2014-04-28Z","coordinates":"\"(-37.81411700003","stuff":" 144.944080999938)\""}},{"type":"Feature","id":"bikeshare.25","geometry":{"type":"Point","coordinates":[144.961113,-37.821071]},"geometry_name":"geom","properties":{"id":"28","name":"Queensbridge  Southbank","latitude":-37.821071,"longitude":144.961113,"nbbikes":8,"nbemptydoc":7,"maplabel":"Queensbridge  Southbank","dateserver":"2014-04-28Z","coordinates":"\"(-37.8210710000282","stuff":" 144.961113000044)\""}},{"type":"Feature","id":"bikeshare.26","geometry":{"type":"Point","coordinates":[144.953581,-37.818124]},"geometry_name":"geom","properties":{"id":"29","name":"Southern Cross Station","latitude":-37.818124,"longitude":144.953581,"nbbikes":10,"nbemptydoc":17,"maplabel":"Southern Cross Station","dateserver":"2014-04-28Z","coordinates":"\"(-37.8181239999889","stuff":" 144.953580999975)\""}},{"type":"Feature","id":"bikeshare.27","geometry":{"type":"Point","coordinates":[144.97341,-37.861984]},"geometry_name":"geom","properties":{"id":"31","name":"St Kilda - Cleve Gardens","latitude":-37.861984,"longitude":144.97341,"nbbikes":14,"nbemptydoc":1,"maplabel":"St Kilda - Cleve Gardens","dateserver":"2014-04-28Z","coordinates":"\"(-37.8619839999766","stuff":" 144.97341000006)\""}},{"type":"Feature","id":"bikeshare.28","geometry":{"type":"Point","coordinates":[144.970272,-37.812052]},"geometry_name":"geom","properties":{"id":"32","name":"Bourke Street / Exhibition St (opp. Department of Transport)","latitude":-37.812052,"longitude":144.970272,"nbbikes":8,"nbemptydoc":7,"maplabel":"Bourke Street / Exhibition St (opp. Department of Transport)","dateserver":"2014-04-28Z","coordinates":"\"(-37.8120519999923","stuff":" 144.970271999963)\""}},{"type":"Feature","id":"bikeshare.29","geometry":{"type":"Point","coordinates":[144.951918,-37.823124]},"geometry_name":"geom","properties":{"id":"33","name":"Docklands - Siddeley St / Seafarers Bridge","latitude":-37.823124,"longitude":144.951918,"nbbikes":10,"nbemptydoc":13,"maplabel":"Docklands - Siddeley St / Seafarers Bridge","dateserver":"2014-04-28Z","coordinates":"\"(-37.8231239999878","stuff":" 144.951917999991)\""}},{"type":"Feature","id":"bikeshare.30","geometry":{"type":"Point","coordinates":[144.959278,-37.815505]},"geometry_name":"geom","properties":{"id":"34","name":"Bourke Street / New Chancery Ln (RACV)","latitude":-37.815505,"longitude":144.959278,"nbbikes":7,"nbemptydoc":4,"maplabel":"Bourke Street / New Chancery Ln (RACV)","dateserver":"2014-04-28Z","coordinates":"\"(-37.8155050000492","stuff":" 144.959278000027)\""}},{"type":"Feature","id":"bikeshare.31","geometry":{"type":"Point","coordinates":[144.961858,-37.811187]},"geometry_name":"geom","properties":{"id":"35","name":"Elizabeth St / Little Lonsdale St (360 Elizabeth)","latitude":-37.811187,"longitude":144.961858,"nbbikes":4,"nbemptydoc":3,"maplabel":"Elizabeth St / Little Lonsdale St (360 Elizabeth)","dateserver":"2014-04-28Z","coordinates":"\"(-37.8111869999984","stuff":" 144.961857999933)\""}},{"type":"Feature","id":"bikeshare.32","geometry":{"type":"Point","coordinates":[144.956553,-37.818294]},"geometry_name":"geom","properties":{"id":"36","name":"Collins St / King St","latitude":-37.818294,"longitude":144.956553,"nbbikes":7,"nbemptydoc":4,"maplabel":"Collins St / King St","dateserver":"2014-04-28Z","coordinates":"\"(-37.8182940000415","stuff":" 144.956553000035)\""}},{"type":"Feature","id":"bikeshare.33","geometry":{"type":"Point","coordinates":[144.960313,-37.800214]},"geometry_name":"geom","properties":{"id":"37","name":"University Square - Grattan St","latitude":-37.800214,"longitude":144.960313,"nbbikes":0,"nbemptydoc":15,"maplabel":"University Square - Grattan St","dateserver":"2014-04-28Z","coordinates":"\"(-37.8002139999472","stuff":" 144.960312999979)\""}},{"type":"Feature","id":"bikeshare.34","geometry":{"type":"Point","coordinates":[144.958318,-37.821324]},"geometry_name":"geom","properties":{"id":"38","name":"Aquarium - Kings Way / Yarra River","latitude":-37.821324,"longitude":144.958318,"nbbikes":10,"nbemptydoc":1,"maplabel":"Aquarium - Kings Way / Yarra River","dateserver":"2014-04-28Z","coordinates":"\"(-37.8213240000236","stuff":" 144.958317999929)\""}},{"type":"Feature","id":"bikeshare.35","geometry":{"type":"Point","coordinates":[144.988507,-37.822962]},"geometry_name":"geom","properties":{"id":"39","name":"Richmond Station - Brunton Avenue","latitude":-37.822962,"longitude":144.988507,"nbbikes":14,"nbemptydoc":5,"maplabel":"Richmond Station - Brunton Avenue","dateserver":"2014-04-28Z","coordinates":"\"(-37.822961999939","stuff":" 144.988506999983)\""}},{"type":"Feature","id":"bikeshare.36","geometry":{"type":"Point","coordinates":[144.978459,-37.822987]},"geometry_name":"geom","properties":{"id":"40","name":"Rod Laver Arena - Batman Ave / Swan St","latitude":-37.822987,"longitude":144.978459,"nbbikes":19,"nbemptydoc":4,"maplabel":"Rod Laver Arena - Batman Ave / Swan St","dateserver":"2014-04-28Z","coordinates":"\"(-37.8229870000002","stuff":" 144.97845899998)\""}},{"type":"Feature","id":"bikeshare.37","geometry":{"type":"Point","coordinates":[144.971678,-37.832396]},"geometry_name":"geom","properties":{"id":"41","name":"Park St / St Kilda Rd","latitude":-37.832396,"longitude":144.971678,"nbbikes":8,"nbemptydoc":7,"maplabel":"Park St / St Kilda Rd","dateserver":"2014-04-28Z","coordinates":"\"(-37.832396000033","stuff":" 144.971677999947)\""}},{"type":"Feature","id":"bikeshare.38","geometry":{"type":"Point","coordinates":[144.975162,-37.836323]},"geometry_name":"geom","properties":{"id":"42","name":"Kingsway / St Kilda Rd","latitude":-37.836323,"longitude":144.975162,"nbbikes":23,"nbemptydoc":4,"maplabel":"Kingsway / St Kilda Rd","dateserver":"2014-04-28Z","coordinates":"\"(-37.8363229999461","stuff":" 144.975161999998)\""}},{"type":"Feature","id":"bikeshare.39","geometry":{"type":"Point","coordinates":[144.974054,-37.813774]},"geometry_name":"geom","properties":{"id":"43","name":"Spring St / Collins St","latitude":-37.813774,"longitude":144.974054,"nbbikes":8,"nbemptydoc":3,"maplabel":"Spring St / Collins St","dateserver":"2014-04-28Z","coordinates":"\"(-37.8137739999641","stuff":" 144.974053999945)\""}},{"type":"Feature","id":"bikeshare.40","geometry":{"type":"Point","coordinates":[144.973699,-37.835383]},"geometry_name":"geom","properties":{"id":"44","name":"Queens Rd / Bowen Cres","latitude":-37.835383,"longitude":144.973699,"nbbikes":5,"nbemptydoc":9,"maplabel":"Queens Rd / Bowen Cres","dateserver":"2014-04-28Z","coordinates":"\"(-37.8353830000035","stuff":" 144.97369899997)\""}},{"type":"Feature","id":"bikeshare.41","geometry":{"type":"Point","coordinates":[144.976428,-37.867068]},"geometry_name":"geom","properties":{"id":"45","name":"St Kilda - Luna Park","latitude":-37.867068,"longitude":144.976428,"nbbikes":17,"nbemptydoc":1,"maplabel":"St Kilda - Luna Park","dateserver":"2014-04-28Z","coordinates":"\"(-37.8670680000241","stuff":" 144.976427999961)\""}},{"type":"Feature","id":"bikeshare.42","geometry":{"type":"Point","coordinates":[144.957511,-37.831475]},"geometry_name":"geom","properties":{"id":"46","name":"York St / Cecil St","latitude":-37.831475,"longitude":144.957511,"nbbikes":15,"nbemptydoc":0,"maplabel":"York St / Cecil St","dateserver":"2014-04-28Z","coordinates":"\"(-37.8314750000087","stuff":" 144.957511000054)\""}},{"type":"Feature","id":"bikeshare.43","geometry":{"type":"Point","coordinates":[144.970085,-37.824088]},"geometry_name":"geom","properties":{"id":"47","name":"VCAM - St Kilda Rd / Southbank Blvd","latitude":-37.824088,"longitude":144.970085,"nbbikes":8,"nbemptydoc":1,"maplabel":"VCAM - St Kilda Rd / Southbank Blvd","dateserver":"2014-04-28Z","coordinates":"\"(-37.8240879999853","stuff":" 144.970084999975)\""}},{"type":"Feature","id":"bikeshare.44","geometry":{"type":"Point","coordinates":[144.969609,-37.803868]},"geometry_name":"geom","properties":{"id":"48","name":"Museum - Rathdowne St","latitude":-37.803868,"longitude":144.969609,"nbbikes":6,"nbemptydoc":9,"maplabel":"Museum - Rathdowne St","dateserver":"2014-04-28Z","coordinates":"\"(-37.8038679999659","stuff":" 144.969608999927)\""}},{"type":"Feature","id":"bikeshare.45","geometry":{"type":"Point","coordinates":[144.982006,-37.816731]},"geometry_name":"geom","properties":{"id":"49","name":"Jolimont Station - Wellington Parade South","latitude":-37.816731,"longitude":144.982006,"nbbikes":7,"nbemptydoc":4,"maplabel":"Jolimont Station - Wellington Parade South","dateserver":"2014-04-28Z","coordinates":"\"(-37.8167309999401","stuff":" 144.982006000035)\""}},{"type":"Feature","id":"bikeshare.46","geometry":{"type":"Point","coordinates":[144.966542,-37.826578]},"geometry_name":"geom","properties":{"id":"50","name":"ACCA (Australian Centre of Contemporary Art)","latitude":-37.826578,"longitude":144.966542,"nbbikes":20,"nbemptydoc":3,"maplabel":"ACCA (Australian Centre of Contemporary Art)","dateserver":"2014-04-28Z","coordinates":"\"(-37.8265779999931","stuff":" 144.966541999977)\""}},{"type":"Feature","id":"bikeshare.47","geometry":{"type":"Point","coordinates":[144.944488,-37.821568]},"geometry_name":"geom","properties":{"id":"51","name":"Docklands - Collins St (ANZ)","latitude":-37.821568,"longitude":144.944488,"nbbikes":2,"nbemptydoc":16,"maplabel":"Docklands - Collins St (ANZ)","dateserver":"2014-04-28Z","coordinates":"\"(-37.8215680000324","stuff":" 144.944487999973)\""}},{"type":"Feature","id":"bikeshare.48","geometry":{"type":"Point","coordinates":[144.955223,-37.809216]},"geometry_name":"geom","properties":{"id":"52","name":"William St / Peel St (Flagstaff Gardens)","latitude":-37.809216,"longitude":144.955223,"nbbikes":6,"nbemptydoc":5,"maplabel":"William St / Peel St (Flagstaff Gardens)","dateserver":"2014-04-28Z","coordinates":"\"(-37.809215999969","stuff":" 144.95522299999)\""}},{"type":"Feature","id":"bikeshare.49","geometry":{"type":"Point","coordinates":[144.959017,-37.806091]},"geometry_name":"geom","properties":{"id":"53","name":"Victoria Market - Elizabeth St / Victoria St (NW)","latitude":-37.806091,"longitude":144.959017,"nbbikes":21,"nbemptydoc":4,"maplabel":"Victoria Market - Elizabeth St / Victoria St (NW)","dateserver":"2014-04-28Z","coordinates":"\"(-37.8060909999844","stuff":" 144.959016999961)\""}},{"type":"Feature","id":"bikeshare.50","geometry":{"type":"Point","coordinates":[144.960818,-37.831776]},"geometry_name":"geom","properties":{"id":"55","name":"Coventry St / Clarendon St","latitude":-37.831776,"longitude":144.960818,"nbbikes":10,"nbemptydoc":1,"maplabel":"Coventry St / Clarendon St","dateserver":"2014-04-28Z","coordinates":"\"(-37.831775999981","stuff":" 144.960817999995)\""}}],"crs":{"type":"EPSG","properties":{"code":"4326"}}}
